$GPZDA,104356.00,31,07,2024,00,00*62
$GPGGA,104356.00,4110.6918,N,00835.6805,W,1,06,1.08,148.09,M,49.986,M,,*7D
$GPRMC,104356.00,A,4110.6918,N,00835.6805,W,0.6473,318.652,310724,-2.1,W*4A
$GPGSA,A,3,4,8,32,14,21,,,,,,,,1.9,1.1,1.6*36
$GPGBS,104356.00,12.228,10.643,4.799,,,,*4C
$GPGSV,4,1,14,22,26,283,00,49,40,160,43,04,24,168,37,03,76,257,00*76
$GPGSV,4,2,14,17,40,310,00,08,18,153,35,19,15,316,00,32,09,035,28*76
$GPGSV,4,3,14,14,24,257,31,37,-9,000,00,34,42,175,43,21,49,087,44*6E
$GPGSV,4,4,14,02,65,069,45,36,32,136,41*76
$GPZDA,104356.25,31,07,2024,00,00*65
$GPGGA,104356.25,4110.6918,N,00835.6805,W,1,06,1.08,148.09,M,49.986,M,,*7A
$GPRMC,104356.25,A,4110.6918,N,00835.6805,W,0.5560,323.531,310724,-2.1,W*43
$GPGSA,A,3,4,8,32,14,21,,,,,,,,1.9,1.1,1.6*36
$GPGBS,104356.25,12.228,10.643,4.807,,,,*43
$GPGSV,4,1,14,22,26,283,00,49,40,160,42,04,24,168,37,03,76,257,00*77
$GPGSV,4,2,14,17,40,310,00,08,18,153,34,19,15,316,00,32,09,035,28*77
$GPGSV,4,3,14,14,24,257,31,37,-9,000,00,34,42,175,42,21,49,087,44*6F
$GPGSV,4,4,14,02,65,069,45,36,32,136,41*76
$GPZDA,104356.50,31,07,2024,00,00*67
$GPGGA,104356.50,4110.6918,N,00835.6806,W,1,06,1.08,148.16,M,49.986,M,,*75
$GPRMC,104356.50,A,4110.6918,N,00835.6806,W,0.5401,329.744,310724,-2.1,W*4E
$GPGSA,A,3,4,8,32,14,21,,,,,,,,1.9,1.1,1.6*36
$GPGBS,104356.50,12.228,10.643,4.815,,,,*42
$GPGSV,4,1,14,22,26,283,00,49,40,160,42,04,24,168,37,03,76,257,00*77
$GPGSV,4,2,14,17,40,310,00,08,18,153,34,19,15,316,00,32,09,035,27*78
$GPGSV,4,3,14,14,24,257,31,37,-9,000,00,34,42,175,42,21,49,087,44*6F
$GPGSV,4,4,14,02,65,069,45,36,32,136,40*77
$GPZDA,104356.75,31,07,2024,00,00*60
$GPGGA,104356.75,4110.6917,N,00835.6806,W,1,06,1.08,148.15,M,49.986,M,,*7E
$GPRMC,104356.75,A,4110.6917,N,00835.6806,W,0.4871,331.390,310724,-2.1,W*48
$GPGSA,A,3,4,8,32,14,21,,,,,,,,1.9,1.1,1.6*36
$GPGBS,104356.75,12.228,10.643,4.820,,,,*43
$GPGSV,4,1,14,22,26,283,00,49,40,160,43,04,24,168,37,03,76,257,24*70
$GPGSV,4,2,14,17,40,310,00,08,18,153,35,19,15,316,00,32,09,035,28*76
$GPGSV,4,3,14,14,24,257,31,37,-9,000,00,34,42,175,42,21,49,087,44*6F
$GPGSV,4,4,14,02,65,069,45,36,32,136,40*77
$GPZDA,104357.00,31,07,2024,00,00*63
$GPGGA,104357.00,4110.6917,N,00835.6806,W,1,06,1.08,148.27,M,49.986,M,,*7C
$GPRMC,104357.00,A,4110.6917,N,00835.6806,W,0.4187,338.199,310724,-2.1,W*49
$GPGSA,A,3,4,8,32,14,21,,,,,,,,1.9,1.1,1.6*36
$GPGBS,104357.00,12.228,10.643,4.820,,,,*40
$GPGSV,4,1,14,22,26,283,00,49,40,160,42,04,24,168,37,03,76,257,24*71
$GPGSV,4,2,14,17,40,310,00,08,18,153,34,19,15,316,00,32,09,035,27*78
$GPGSV,4,3,14,14,24,257,31,37,-9,000,00,34,42,175,43,21,49,087,44*6E
$GPGSV,4,4,14,02,65,069,44,36,32,136,41*77
$GPZDA,104357.25,31,07,2024,00,00*64
$GPGGA,104357.25,4110.6917,N,00835.6806,W,1,06,1.08,148.34,M,49.986,M,,*79
$GPRMC,104357.25,A,4110.6917,N,00835.6806,W,0.3829,336.038,310724,-2.1,W*40
$GPGSA,A,3,4,8,32,14,21,,,,,,,,1.9,1.1,1.6*36
$GPGBS,104357.25,12.228,10.643,4.822,,,,*45
$GPGSV,4,1,14,22,26,283,00,49,40,160,42,04,24,168,37,03,76,257,24*71
$GPGSV,4,2,14,17,40,310,00,08,18,153,35,19,15,316,00,32,09,035,28*76
$GPGSV,4,3,14,14,24,257,31,37,-9,000,00,34,42,175,42,21,49,087,44*6F
$GPGSV,4,4,14,02,65,069,45,36,32,136,40*77
$GPZDA,104357.50,31,07,2024,00,00*66
$GPGGA,104357.50,4110.6916,N,00835.6806,W,1,06,1.08,148.36,M,49.986,M,,*78
$GPRMC,104357.50,A,4110.6916,N,00835.6806,W,0.4437,331.189,310724,-2.1,W*4B
$GPGSA,A,3,4,8,32,14,21,,,,,,,,1.9,1.1,1.6*36
$GPGBS,104357.50,12.228,10.643,4.830,,,,*44
$GPGSV,4,1,14,22,26,283,00,49,40,160,43,04,24,168,37,03,76,257,24*70
$GPGSV,4,2,14,17,40,310,00,08,18,153,35,19,15,316,00,32,09,035,28*76
$GPGSV,4,3,14,14,24,257,31,37,-9,000,00,34,42,175,42,21,49,087,44*6F
$GPGSV,4,4,14,02,65,069,45,36,32,136,41*76
$GPZDA,104357.75,31,07,2024,00,00*61
$GPGGA,104357.75,4110.6916,N,00835.6807,W,1,06,1.08,148.44,M,49.986,M,,*7B
$GPRMC,104357.75,A,4110.6916,N,00835.6807,W,0.4433,322.125,310724,-2.1,W*4D
$GPGSA,A,3,4,8,32,14,21,,,,,,,,1.9,1.1,1.6*36
$GPGBS,104357.75,12.228,10.643,4.836,,,,*45
$GPGSV,4,1,14,22,26,283,00,49,40,160,42,04,24,168,37,03,76,257,24*71
$GPGSV,4,2,14,17,40,310,00,08,18,153,35,19,15,316,00,32,09,035,28*76
$GPGSV,4,3,14,14,24,257,31,37,-9,000,00,34,42,175,43,21,49,087,44*6E
$GPGSV,4,4,14,02,65,069,45,36,32,136,41*76
$GPZDA,104358.00,31,07,2024,00,00*6C
$GPGGA,104358.00,4110.6916,N,00835.6807,W,1,06,1.08,148.51,M,49.986,M,,*72
$GPRMC,104358.00,A,4110.6916,N,00835.6807,W,0.4003,330.945,310724,-2.1,W*4A
$GPGSA,A,3,4,8,32,14,21,,,,,,,,1.9,1.1,1.6*36
$GPGBS,104358.00,12.228,10.643,4.840,,,,*49
$GPGSV,4,1,14,22,26,283,00,49,40,160,42,04,24,168,37,03,76,257,24*71
$GPGSV,4,2,14,17,40,310,00,08,18,153,35,19,15,316,00,32,09,035,28*76
$GPGSV,4,3,14,14,24,257,31,37,-9,000,00,34,42,175,42,21,49,087,44*6F
$GPGSV,4,4,14,02,65,069,45,36,32,136,40*77
$GPZDA,104358.25,31,07,2024,00,00*6B
$GPGGA,104358.25,4110.6915,N,00835.6807,W,1,06,1.08,148.72,M,49.986,M,,*77
$GPRMC,104358.25,A,4110.6915,N,00835.6807,W,0.3616,323.746,310724,-2.1,W*44
$GPGSA,A,3,4,8,32,14,21,,,,,,,,1.9,1.1,1.6*36
$GPGBS,104358.25,12.228,10.643,4.843,,,,*4D
$GPGSV,4,1,14,22,26,283,00,49,40,160,42,04,24,168,37,03,76,257,25*70
$GPGSV,4,2,14,17,40,310,00,08,18,153,35,19,15,316,00,32,09,035,28*76
$GPGSV,4,3,14,14,24,257,31,28,01,070,00,34,42,175,42,21,49,087,44*73
$GPGSV,4,4,14,02,65,069,45,36,32,136,41*76
$GPZDA,104358.50,31,07,2024,00,00*69
$GPGGA,104358.50,4110.6914,N,00835.6807,W,1,06,1.08,148.90,M,49.986,M,,*78
$GPRMC,104358.50,A,4110.6914,N,00835.6807,W,0.2644,323.973,310724,-2.1,W*49
$GPGSA,A,3,4,8,32,14,21,,,,,,,,1.9,1.1,1.6*36
$GPGBS,104358.50,12.228,10.643,4.845,,,,*49
$GPGSV,4,1,14,22,26,283,00,49,40,160,42,04,24,168,37,03,76,257,24*71
$GPGSV,4,2,14,17,40,310,00,08,18,153,35,19,15,316,00,32,09,035,28*76
$GPGSV,4,3,14,14,24,257,31,28,01,070,00,34,42,175,43,21,49,087,44*72
$GPGSV,4,4,14,02,65,069,45,36,32,136,41*76
$GPZDA,104358.75,31,07,2024,00,00*6E
$GPGGA,104358.75,4110.6914,N,00835.6807,W,1,06,1.08,149.06,M,49.986,M,,*71
$GPRMC,104358.75,A,4110.6914,N,00835.6807,W,0.1844,341.565,310724,-2.1,W*4C
$GPGSA,A,3,4,8,32,14,21,,,,,,,,1.9,1.1,1.6*36
$GPGBS,104358.75,12.228,10.643,4.848,,,,*43
$GPGSV,4,1,14,22,26,283,00,49,40,160,43,04,24,168,37,03,76,257,24*70
$GPGSV,4,2,14,17,40,310,00,08,18,153,35,19,15,316,00,32,09,035,28*76
$GPGSV,4,3,14,14,24,257,31,28,01,070,00,34,42,175,42,21,49,087,44*73
$GPGSV,4,4,14,02,65,069,45,36,32,136,41*76
$GPZDA,104359.00,31,07,2024,00,00*6D
$GPGGA,104359.00,4110.6913,N,00835.6807,W,1,06,1.08,149.23,M,49.986,M,,*72
$GPRMC,104359.00,A,4110.6913,N,00835.6807,W,0.2001,330.945,310724,-2.1,W*4A
$GPGSA,A,3,4,8,32,14,21,,,,,,,,1.9,1.1,1.6*36
$GPGBS,104359.00,12.228,10.643,4.848,,,,*40
$GPGSV,4,1,14,22,26,283,00,49,40,160,42,04,24,168,37,03,76,257,25*70
$GPGSV,4,2,14,17,40,310,00,08,18,153,35,19,15,316,00,32,09,035,28*76
$GPGSV,4,3,14,14,24,257,31,28,01,070,00,34,42,175,42,21,49,087,44*73
$GPGSV,4,4,14,02,65,069,45,36,32,136,40*77
$GPZDA,104359.25,31,07,2024,00,00*6A
$GPGGA,104359.25,4110.6912,N,00835.6808,W,1,06,1.08,149.37,M,49.986,M,,*7E
$GPRMC,104359.25,A,4110.6912,N,00835.6808,W,0.0991,348.690,310724,-2.1,W*49
$GPGSA,A,3,4,8,32,14,21,,,,,,,,1.9,1.1,1.6*36
$GPGBS,104359.25,12.228,10.643,4.849,,,,*46
$GPGSV,4,1,14,22,26,283,00,49,40,160,42,04,24,168,37,03,76,257,24*71
$GPGSV,4,2,14,17,40,310,00,08,18,153,35,19,15,316,00,32,09,035,28*76
$GPGSV,4,3,14,14,24,257,31,28,01,070,00,34,42,175,42,21,49,087,44*73
$GPGSV,4,4,14,02,65,069,45,36,32,136,41*76
$GPZDA,104359.50,31,07,2024,00,00*68
$GPGGA,104359.50,4110.6912,N,00835.6808,W,1,06,1.08,149.52,M,49.986,M,,*7F
$GPRMC,104359.50,A,4110.6912,N,00835.6808,W,0.1415,15.945,310724,-2.1,W*77
$GPGSA,A,3,4,8,32,14,21,,,,,,,,1.9,1.1,1.6*36
$GPGBS,104359.50,12.228,10.643,4.850,,,,*4C
$GPGSV,4,1,14,22,26,283,00,49,40,160,42,04,24,168,37,03,76,257,25*70
$GPGSV,4,2,14,17,40,310,00,08,18,153,35,19,15,316,00,32,09,035,27*79
$GPGSV,4,3,14,14,24,257,31,28,01,070,00,34,42,175,42,21,49,087,44*73
$GPGSV,4,4,14,02,65,069,45,36,32,136,41*76
$GPZDA,104359.75,31,07,2024,00,00*6F
$GPGGA,104359.75,4110.6911,N,00835.6808,W,1,06,1.08,149.70,M,49.986,M,,*7B
$GPRMC,104359.75,A,4110.6911,N,00835.6808,W,0.0583,0.000,310724,-2.1,W*40
$GPGSA,A,3,4,8,32,14,21,,,,,,,,1.9,1.1,1.6*36
$GPGBS,104359.75,12.228,10.643,4.855,,,,*4E
$GPGSV,4,1,14,22,26,283,00,49,40,160,42,04,24,168,37,03,76,257,25*70
$GPGSV,4,2,14,17,40,310,00,08,18,153,35,19,15,316,00,32,09,035,28*76
$GPGSV,4,3,14,14,24,257,31,28,01,070,00,34,42,175,42,21,49,087,44*73
$GPGSV,4,4,14,02,65,069,45,36,32,136,41*76
$GPZDA,104400.00,31,07,2024,00,00*66
$GPGGA,104400.00,4110.6911,N,00835.6808,W,1,06,1.08,149.83,M,49.986,M,,*7E
$GPRMC,104400.00,A,4110.6911,N,00835.6808,W,0.0701,56.310,310724,-2.1,W*70
$GPGSA,A,3,4,8,32,14,21,,,,,,,,1.9,1.1,1.6*36
$GPGBS,104400.00,12.228,10.643,4.859,,,,*4B
$GPGSV,4,1,14,22,26,283,00,49,40,160,43,04,24,168,37,03,76,257,24*70
$GPGSV,4,2,14,17,40,310,00,08,18,153,35,19,15,316,00,32,09,035,29*77
$GPGSV,4,3,14,14,24,257,31,28,01,070,00,34,42,175,42,21,49,087,44*73
$GPGSV,4,4,14,02,65,069,45,36,32,136,41*76
$GPZDA,104400.25,31,07,2024,00,00*61
$GPGGA,104400.25,4110.6910,N,00835.6808,W,1,06,1.08,149.95,M,49.986,M,,*7F
$GPRMC,104400.25,A,4110.6910,N,00835.6808,W,0.0615,71.565,310724,-2.1,W*73
$GPGSA,A,3,4,8,32,14,21,,,,,,,,1.9,1.1,1.6*36
$GPGBS,104400.25,12.228,10.643,4.859,,,,*4C
$GPGSV,4,1,14,22,26,283,00,49,40,160,42,04,24,168,37,03,76,257,25*70
$GPGSV,4,2,14,17,40,310,00,08,18,153,35,19,15,316,00,32,09,035,29*77
$GPGSV,4,3,14,14,24,257,31,28,01,070,00,34,42,175,42,21,49,087,44*73
$GPGSV,4,4,14,02,65,069,45,36,32,136,41*76
$GPZDA,104400.50,31,07,2024,00,00*63
$GPGGA,104400.50,4110.6910,N,00835.6808,W,1,06,1.08,150.05,M,49.986,M,,*7C
$GPRMC,104400.50,A,4110.6910,N,00835.6808,W,0.0583,90.000,310724,-2.1,W*74
$GPGSA,A,3,4,8,32,14,21,,,,,,,,1.9,1.1,1.6*36
$GPGBS,104400.50,12.228,10.643,4.858,,,,*4F
$GPGSV,4,1,14,22,26,283,00,49,40,160,42,04,24,168,37,03,76,258,25*7F
$GPGSV,4,2,14,17,40,310,00,08,18,153,35,19,15,316,00,32,09,035,29*77
$GPGSV,4,3,14,14,24,257,31,28,01,070,00,34,42,175,43,21,49,087,44*72
$GPGSV,4,4,14,02,65,069,45,36,32,136,41*76
$GPZDA,104400.75,31,07,2024,00,00*64
$GPGGA,104400.75,4110.6909,N,00835.6808,W,1,06,1.08,150.16,M,49.986,M,,*71
$GPRMC,104400.75,A,4110.6909,N,00835.6808,W,0.1661,110.556,310724,-2.1,W*4A
$GPGSA,A,3,4,8,32,14,21,,,,,,,,1.9,1.1,1.6*36
$GPGBS,104400.75,12.228,10.643,4.855,,,,*45
$GPGSV,4,1,14,22,26,283,00,49,40,160,43,04,24,168,37,03,76,258,26*7D
$GPGSV,4,2,14,17,40,310,00,08,18,153,35,19,15,316,00,32,09,035,29*77
$GPGSV,4,3,14,14,24,257,31,28,01,070,00,34,42,175,43,21,49,087,44*72
$GPGSV,4,4,14,02,65,069,45,36,32,136,40*77
$GPZDA,104401.00,31,07,2024,00,00*67
$GPGGA,104401.00,4110.6909,N,00835.6809,W,1,06,1.08,150.29,M,49.986,M,,*7F
$GPRMC,104401.00,A,4110.6909,N,00835.6809,W,0.1914,113.962,310724,-2.1,W*4D
$GPGSA,A,3,4,8,32,14,21,,,,,,,,1.9,1.1,1.6*36
$GPGBS,104401.00,12.228,10.643,4.853,,,,*40
$GPGSV,4,1,14,22,26,283,25,49,40,160,42,04,24,168,37,03,76,258,26*7B
$GPGSV,4,2,14,17,40,310,00,08,18,153,35,19,15,316,00,32,09,035,29*77
$GPGSV,4,3,14,14,24,257,31,28,01,070,00,34,42,175,43,21,49,087,44*72
$GPGSV,4,4,14,02,65,069,45,36,32,136,41*76
$GPZDA,104401.25,31,07,2024,00,00*60
$GPGGA,104401.25,4110.6908,N,00835.6809,W,1,06,1.08,150.42,M,49.986,M,,*74
$GPRMC,104401.25,A,4110.6908,N,00835.6809,W,0.2615,131.987,310724,-2.1,W*4D
$GPGSA,A,3,4,8,32,14,21,,,,,,,,1.9,1.1,1.6*36
$GPGBS,104401.25,12.228,10.643,4.850,,,,*44
$GPGSV,4,1,14,22,26,283,24,49,40,160,42,04,24,168,37,03,76,258,26*7A
$GPGSV,4,2,14,17,40,310,00,08,18,153,35,19,15,316,00,32,09,035,29*77
$GPGSV,4,3,14,14,24,257,31,28,01,070,00,34,42,175,42,21,49,087,44*73
$GPGSV,4,4,14,02,65,069,45,36,32,136,41*76
$GPZDA,104401.50,31,07,2024,00,00*62
$GPGGA,104401.50,4110.6908,N,00835.6809,W,1,06,1.08,150.49,M,49.986,M,,*7D
$GPRMC,104401.50,A,4110.6908,N,00835.6809,W,0.2916,126.870,310724,-2.1,W*4C
$GPGSA,A,3,4,8,32,14,21,,,,,,,,1.9,1.1,1.6*36
$GPGBS,104401.50,12.228,10.643,4.841,,,,*46
$GPGSV,4,1,14,22,26,283,23,49,40,160,43,04,24,168,36,03,76,258,26*7D
$GPGSV,4,2,14,17,40,310,00,08,18,153,35,19,15,316,00,32,09,035,30*7F
$GPGSV,4,3,14,14,24,257,31,28,01,070,00,34,42,175,42,21,49,087,44*73
$GPGSV,4,4,14,02,65,069,45,36,32,136,41*76
$GPZDA,104401.75,31,07,2024,00,00*65
$GPGGA,104401.75,4110.6907,N,00835.6809,W,1,06,1.08,150.60,M,49.986,M,,*7E
$GPRMC,104401.75,A,4110.6907,N,00835.6809,W,0.3310,130.236,310724,-2.1,W*46
$GPGSA,A,3,4,8,32,14,21,,,,,,,,1.9,1.1,1.6*36
$GPGBS,104401.75,12.228,10.643,4.838,,,,*4F
$GPGSV,4,1,14,22,26,283,24,49,40,160,42,04,24,168,37,03,76,258,26*7A
$GPGSV,4,2,14,17,40,310,00,08,18,153,35,19,15,316,00,32,09,035,29*77
$GPGSV,4,3,14,14,24,257,31,28,01,070,00,34,42,175,43,21,49,087,44*72
$GPGSV,4,4,14,02,65,069,45,36,32,136,41*76
$GPZDA,104402.00,31,07,2024,00,00*64
$GPGGA,104402.00,4110.6907,N,00835.6809,W,1,06,1.08,150.72,M,49.986,M,,*7C
$GPRMC,104402.00,A,4110.6907,N,00835.6809,W,0.3073,145.305,310724,-2.1,W*42
$GPGSA,A,3,4,8,32,14,21,,,,,,,,1.9,1.1,1.6*36
$GPGBS,104402.00,12.228,10.643,4.834,,,,*42
$GPGSV,4,1,14,22,26,283,24,49,40,160,42,04,24,168,37,03,76,258,26*7A
$GPGSV,4,2,14,17,40,310,00,08,18,153,35,19,15,316,00,32,09,035,29*77
$GPGSV,4,3,14,14,24,257,31,28,01,070,00,34,42,175,42,21,49,087,44*73
$GPGSV,4,4,14,02,65,069,45,36,32,136,41*76
$GPZDA,104402.25,31,07,2024,00,00*63
$GPGGA,104402.25,4110.6906,N,00835.6809,W,1,06,1.08,150.84,M,49.986,M,,*73
$GPRMC,104402.25,A,4110.6906,N,00835.6809,W,0.2749,135.000,310724,-2.1,W*4A
$GPGSA,A,3,4,8,32,14,21,,,,,,,,1.9,1.1,1.6*36
$GPGBS,104402.25,12.228,10.643,4.830,,,,*41
$GPGSV,4,1,14,22,26,283,24,49,40,160,42,04,24,168,37,03,76,258,27*7B
$GPGSV,4,2,14,17,40,310,00,08,18,153,35,19,15,316,00,32,09,035,29*77
$GPGSV,4,3,14,14,24,257,31,28,01,070,00,34,42,175,42,21,49,087,44*73
$GPGSV,4,4,14,02,65,069,45,36,32,136,41*76
$GPZDA,104402.50,31,07,2024,00,00*61
$GPGGA,104402.50,4110.6906,N,00835.6809,W,1,06,1.08,150.92,M,49.986,M,,*76
$GPRMC,104402.50,A,4110.6906,N,00835.6809,W,0.1944,143.130,310724,-2.1,W*4B
$GPGSA,A,3,4,8,32,14,21,,,,,,,,1.9,1.1,1.6*36
$GPGBS,104402.50,12.228,10.643,4.825,,,,*47
$GPGSV,4,1,14,22,26,283,24,49,40,160,43,04,24,168,37,03,76,258,26*7B
$GPGSV,4,2,14,17,40,310,00,08,18,153,35,19,15,316,00,32,09,035,29*77
$GPGSV,4,3,14,14,24,257,31,28,01,070,00,34,42,175,43,21,49,087,44*72
$GPGSV,4,4,14,02,65,069,45,36,32,136,41*76
$GPZDA,104402.75,31,07,2024,00,00*66
$GPGGA,104402.75,4110.6905,N,00835.6809,W,1,06,1.08,151.15,M,49.986,M,,*7C
$GPRMC,104402.75,A,4110.6905,N,00835.6809,W,0.0801,255.964,310724,-2.1,W*43
$GPGSA,A,3,4,8,32,14,21,,,,,,,,1.9,1.1,1.6*36
$GPGBS,104402.75,12.228,10.643,4.824,,,,*41
$GPGSV,4,1,14,22,26,283,23,49,40,160,43,04,24,168,36,03,76,258,26*7D
$GPGSV,4,2,14,17,40,310,00,08,18,153,35,19,15,316,00,32,09,035,28*76
$GPGSV,4,3,14,14,24,257,31,28,01,070,00,34,42,175,42,21,49,087,44*73
$GPGSV,4,4,14,02,65,069,45,36,32,136,41*76
$GPZDA,104403.00,31,07,2024,00,00*65
$GPGGA,104403.00,4110.6904,N,00835.6809,W,1,06,1.08,151.35,M,49.986,M,,*7C
$GPRMC,104403.00,A,4110.6904,N,00835.6809,W,0.1229,251.565,310724,-2.1,W*49
$GPGSA,A,3,4,8,32,14,21,,,,,,,,1.9,1.1,1.6*36
$GPGBS,104403.00,12.228,10.643,4.819,,,,*4C
$GPGSV,4,1,14,22,26,283,22,49,40,160,43,04,24,168,36,03,76,258,27*7D
$GPGSV,4,2,14,17,40,310,00,08,18,153,35,19,15,316,00,32,09,035,29*77
$GPGSV,4,3,14,14,24,257,31,28,01,070,00,34,42,175,43,21,49,087,44*72
$GPGSV,4,4,14,02,65,069,45,36,32,136,41*76
$GPZDA,104403.25,31,07,2024,00,00*62
$GPGGA,104403.25,4110.6903,N,00835.6809,W,1,06,1.08,151.58,M,49.986,M,,*77
$GPRMC,104403.25,A,4110.6903,N,00835.6809,W,0.1415,285.945,310724,-2.1,W*47
$GPGSA,A,3,4,8,32,14,21,,,,,,,,1.9,1.1,1.6*36
$GPGBS,104403.25,12.228,10.643,4.815,,,,*47
$GPGSV,4,1,14,22,26,283,23,49,40,160,42,04,24,168,36,03,76,258,27*7D
$GPGSV,4,2,14,17,40,310,00,08,18,153,35,19,15,316,00,32,09,035,29*77
$GPGSV,4,3,14,14,24,257,31,28,01,070,00,34,42,175,42,21,49,087,44*73
$GPGSV,4,4,14,02,65,069,45,36,32,136,41*76
$GPZDA,104403.50,31,07,2024,00,00*60
$GPGGA,104403.50,4110.6903,N,00835.6809,W,1,06,1.08,151.74,M,49.986,M,,*7B
$GPRMC,104403.50,A,4110.6903,N,00835.6809,W,0.2103,303.690,310724,-2.1,W*4C
$GPGSA,A,3,4,8,32,14,21,,,,,,,,1.9,1.1,1.6*36
$GPGBS,104403.50,12.228,10.643,4.806,,,,*47
$GPGSV,4,1,14,22,26,283,00,49,40,160,43,04,24,168,36,03,76,258,27*7D
$GPGSV,4,2,14,17,40,310,00,08,18,153,35,19,15,316,00,32,09,035,30*7F
$GPGSV,4,3,14,14,24,257,31,28,01,070,00,34,42,175,43,21,49,087,44*72
$GPGSV,4,4,14,02,65,069,45,36,32,136,41*76
$GPZDA,104403.75,31,07,2024,00,00*67
$GPGGA,104403.75,4110.6902,N,00835.6809,W,1,06,1.08,151.84,M,49.986,M,,*72
$GPRMC,104403.75,A,4110.6902,N,00835.6809,W,0.3834,300.466,310724,-2.1,W*4E
$GPGSA,A,3,4,8,32,14,21,,,,,,,,1.9,1.1,1.6*36
$GPGBS,104403.75,12.228,10.643,4.802,,,,*44
$GPGSV,4,1,14,22,26,283,00,49,40,160,43,04,24,168,36,03,76,258,27*7D
$GPGSV,4,2,14,17,40,310,00,08,18,153,35,19,15,316,00,32,09,035,30*7F
$GPGSV,4,3,14,14,24,257,31,28,01,070,00,34,42,175,42,21,49,087,44*73
$GPGSV,4,4,14,02,65,069,45,36,32,136,41*76
$GPZDA,104404.00,31,07,2024,00,00*62
$GPGGA,104404.00,4110.6902,N,00835.6809,W,1,06,1.08,151.97,M,49.986,M,,*75
$GPRMC,104404.00,A,4110.6902,N,00835.6809,W,0.6418,305.134,310724,-2.1,W*4B
$GPGSA,A,3,4,8,32,14,21,,,,,,,,1.9,1.1,1.6*36
$GPGBS,104404.00,12.228,10.643,4.803,,,,*40
$GPGSV,4,1,14,22,26,283,00,49,40,160,43,04,24,168,36,03,76,258,27*7D
$GPGSV,4,2,14,17,41,310,00,08,18,153,35,19,15,316,00,32,09,035,29*76
$GPGSV,4,3,14,14,24,257,31,28,01,070,00,34,42,175,43,21,49,087,44*72
$GPGSV,4,4,14,02,65,069,45,36,32,136,41*76
$GPZDA,104404.25,31,07,2024,00,00*65
$GPGGA,104404.25,4110.6901,N,00835.6810,W,1,06,1.08,152.11,M,49.986,M,,*74
$GPRMC,104404.25,A,4110.6901,N,00835.6810,W,0.7297,311.760,310724,-2.1,W*45
$GPGSA,A,3,4,8,32,14,21,,,,,,,,1.9,1.1,1.6*36
$GPGBS,104404.25,12.228,10.643,4.803,,,,*47
$GPGSV,4,1,14,22,26,283,00,49,40,160,42,04,24,168,36,03,76,258,27*7C
$GPGSV,4,2,14,17,41,310,00,08,18,153,35,19,15,316,00,32,09,035,29*76
$GPGSV,4,3,14,14,24,257,31,28,01,070,00,34,42,175,42,21,49,087,44*73
$GPGSV,4,4,14,02,65,069,45,36,32,136,41*76
$GPZDA,104404.50,31,07,2024,00,00*67
$GPGGA,104404.50,4110.6900,N,00835.6810,W,1,06,1.08,152.31,M,49.986,M,,*75
$GPRMC,104404.50,A,4110.6900,N,00835.6810,W,0.8120,312.089,310724,-2.1,W*45
$GPGSA,A,3,4,8,32,14,21,,,,,,,,1.9,1.1,1.6*36
$GPGBS,104404.50,12.228,10.643,4.802,,,,*44
$GPGSV,4,1,14,22,26,283,00,49,40,160,42,04,24,168,36,03,76,258,28*73
$GPGSV,4,2,14,17,41,310,00,08,18,153,35,19,15,316,00,32,09,035,29*76
$GPGSV,4,3,14,14,24,257,31,28,01,070,00,34,42,175,42,21,49,087,44*73
$GPGSV,4,4,14,02,65,069,45,36,32,136,41*76
$GPZDA,104404.75,31,07,2024,00,00*60
$GPGGA,104404.75,4110.6900,N,00835.6810,W,1,06,1.08,152.52,M,49.986,M,,*77
$GPRMC,104404.75,A,4110.6900,N,00835.6810,W,0.8526,316.848,310724,-2.1,W*41
$GPGSA,A,3,4,8,32,14,21,,,,,,,,1.9,1.1,1.6*36
$GPGBS,104404.75,12.228,10.643,4.800,,,,*41
$GPGSV,4,1,14,22,26,283,00,49,40,160,43,04,24,168,36,03,76,258,27*7D
$GPGSV,4,2,14,17,41,310,00,08,18,153,35,19,15,316,00,32,09,035,29*76
$GPGSV,4,3,14,14,24,257,31,28,01,070,00,34,42,175,42,21,49,087,44*73
$GPGSV,4,4,14,02,65,069,45,36,32,136,41*76
$GPZDA,104405.00,31,07,2024,00,00*63
$GPGGA,104405.00,4110.6899,N,00835.6810,W,1,06,1.08,152.69,M,49.986,M,,*7D
$GPRMC,104405.00,A,4110.6899,N,00835.6810,W,0.8413,319.686,310724,-2.1,W*47
$GPGSA,A,3,4,8,32,14,21,,,,,,,,1.9,1.1,1.6*36
$GPGBS,104405.00,12.228,10.643,4.799,,,,*4D
$GPGSV,4,1,14,22,26,283,00,49,40,160,42,04,24,168,36,03,76,258,27*7C
$GPGSV,4,2,14,17,41,310,00,08,18,153,35,19,15,316,00,32,09,035,29*76
$GPGSV,4,3,14,14,24,257,31,28,01,070,00,34,42,175,42,21,49,087,44*73
$GPGSV,4,4,14,02,65,069,45,36,32,136,41*76
$GPZDA,104405.25,31,07,2024,00,00*64
$GPGGA,104405.25,4110.6898,N,00835.6810,W,1,06,1.08,152.88,M,49.986,M,,*74
$GPRMC,104405.25,A,4110.6898,N,00835.6810,W,0.8562,320.528,310724,-2.1,W*4B
$GPGSA,A,3,4,8,32,14,21,,,,,,,,1.9,1.1,1.6*36
$GPGBS,104405.25,12.228,10.643,4.798,,,,*4B
$GPGSV,4,1,14,22,26,282,00,49,40,160,42,04,24,168,36,03,76,258,27*7D
$GPGSV,4,2,14,17,41,310,00,08,18,153,34,19,15,316,00,32,09,035,29*77
$GPGSV,4,3,14,14,24,257,31,28,01,070,00,34,42,175,43,21,49,087,44*72
$GPGSV,4,4,14,02,65,069,45,36,32,136,41*76
$GPZDA,104405.50,31,07,2024,00,00*66
$GPGGA,104405.50,4110.6897,N,00835.6810,W,1,06,1.08,153.11,M,49.986,M,,*78
$GPRMC,104405.50,A,4110.6897,N,00835.6810,W,0.9957,321.340,310724,-2.1,W*44
$GPGSA,A,3,4,8,32,14,21,,,,,,,,1.9,1.1,1.6*36
$GPGBS,104405.50,12.228,10.643,4.795,,,,*44
$GPGSV,4,1,14,22,26,282,00,49,40,160,43,04,24,168,36,03,76,258,27*7C
$GPGSV,4,2,14,17,41,310,00,08,18,153,35,19,15,316,00,32,09,035,29*76
$GPGSV,4,3,14,14,24,257,31,28,01,070,00,34,42,175,43,21,49,087,44*72
$GPGSV,4,4,14,02,65,069,45,36,32,136,41*76
$GPZDA,104405.75,31,07,2024,00,00*61
$GPGGA,104405.75,4110.6896,N,00835.6810,W,1,06,1.08,153.37,M,49.986,M,,*7A
$GPRMC,104405.75,A,4110.6896,N,00835.6810,W,0.9411,321.710,310724,-2.1,W*4C
$GPGSA,A,3,4,8,32,14,21,,,,,,,,1.9,1.1,1.6*36
$GPGBS,104405.75,12.228,10.643,4.793,,,,*45
$GPGSV,4,1,14,22,26,282,00,49,40,160,42,04,24,168,36,03,76,258,28*72
$GPGSV,4,2,14,17,41,310,00,08,18,153,35,19,15,316,00,32,09,035,29*76
$GPGSV,4,3,14,14,24,257,31,28,01,070,00,34,42,175,43,21,49,087,44*72
$GPGSV,4,4,14,02,65,069,45,36,32,136,41*76
$GPZDA,104406.00,31,07,2024,00,00*60
$GPGGA,104406.00,4110.6896,N,00835.6810,W,1,06,1.08,153.47,M,49.986,M,,*7C
$GPRMC,104406.00,A,4110.6896,N,00835.6810,W,1.1051,320.711,310724,-2.1,W*44
$GPGSA,A,3,4,8,32,14,21,,,,,,,,1.9,1.1,1.6*36
$GPGBS,104406.00,12.228,10.643,4.790,,,,*47
$GPGSV,4,1,14,22,26,282,00,49,40,160,42,04,24,168,36,03,76,258,28*72
$GPGSV,4,2,14,17,41,310,00,08,18,153,35,19,15,316,00,32,09,035,30*7E
$GPGSV,4,3,14,14,24,257,31,28,01,070,00,34,42,175,42,21,49,087,44*73
$GPGSV,4,4,14,02,65,069,45,36,32,136,41*76
$GPZDA,104406.25,31,07,2024,00,00*67
$GPGGA,104406.25,4110.6896,N,00835.6811,W,1,06,1.08,153.62,M,49.986,M,,*7D
$GPRMC,104406.25,A,4110.6896,N,00835.6811,W,1.0777,320.856,310724,-2.1,W*4C
$GPGSA,A,3,4,8,32,14,21,,,,,,,,1.9,1.1,1.6*36
$GPGBS,104406.25,12.228,10.643,4.787,,,,*46
$GPGSV,4,1,14,22,26,282,00,49,40,160,42,04,24,168,36,03,76,258,27*7D
$GPGSV,4,2,14,17,41,310,00,08,18,153,35,19,15,316,00,32,09,035,30*7E
$GPGSV,4,3,14,14,24,257,31,28,01,070,00,34,42,175,42,21,49,087,44*73
$GPGSV,4,4,14,02,65,069,45,36,32,136,41*76
$GPZDA,104406.50,31,07,2024,00,00*65
$GPGGA,104406.50,4110.6895,N,00835.6811,W,1,06,1.08,153.84,M,49.986,M,,*74
$GPRMC,104406.50,A,4110.6895,N,00835.6811,W,1.0080,320.477,310724,-2.1,W*4D
$GPGSA,A,3,4,8,32,14,21,,,,,,,,1.9,1.1,1.6*36
$GPGBS,104406.50,12.228,10.643,4.789,,,,*4A
$GPGSV,4,1,14,22,26,282,00,49,40,160,43,04,24,168,36,03,76,258,28*73
$GPGSV,4,2,14,17,41,310,00,08,18,153,34,19,15,316,00,32,09,035,29*77
$GPGSV,4,3,14,14,24,257,31,28,01,070,00,34,42,175,43,21,49,087,44*72
$GPGSV,4,4,14,02,65,069,45,36,32,136,41*76
$GPZDA,104406.75,31,07,2024,00,00*62
$GPGGA,104406.75,4110.6894,N,00835.6811,W,1,06,1.08,154.05,M,49.986,M,,*7C
$GPRMC,104406.75,A,4110.6894,N,00835.6811,W,0.9837,322.224,310724,-2.1,W*45
$GPGSA,A,3,4,8,32,14,21,,,,,,,,1.9,1.1,1.6*36
$GPGBS,104406.75,12.228,10.643,4.790,,,,*45
$GPGSV,4,1,14,22,26,282,00,49,40,160,43,04,24,168,36,03,76,258,28*73
$GPGSV,4,2,14,17,41,310,00,08,18,153,34,19,15,316,00,32,09,035,29*77
$GPGSV,4,3,14,14,24,257,31,28,01,070,00,34,42,175,43,21,49,087,44*72
$GPGSV,4,4,14,02,65,069,45,36,32,136,41*76
$GPZDA,104407.00,31,07,2024,00,00*61
$GPGGA,104407.00,4110.6893,N,00835.6811,W,1,06,1.08,154.25,M,49.986,M,,*7A
$GPRMC,104407.00,A,4110.6893,N,00835.6811,W,0.9543,326.634,310724,-2.1,W*4E
$GPGSA,A,3,4,8,32,14,21,,,,,,,,1.9,1.1,1.6*36
$GPGBS,104407.00,12.228,10.643,4.791,,,,*47
$GPGSV,4,1,14,22,26,282,00,49,40,160,42,04,24,168,36,03,76,258,28*72
$GPGSV,4,2,14,17,41,310,00,08,18,153,34,19,15,316,00,32,09,035,29*77
$GPGSV,4,3,14,14,24,257,31,28,01,070,00,34,42,175,42,21,49,087,44*73
$GPGSV,4,4,14,02,65,069,45,36,32,136,41*76
$GPZDA,104407.25,31,07,2024,00,00*66
$GPGGA,104407.25,4110.6893,N,00835.6811,W,1,06,1.08,154.44,M,49.986,M,,*7A
$GPRMC,104407.25,A,4110.6893,N,00835.6811,W,1.0304,324.211,310724,-2.1,W*45
$GPGSA,A,3,4,8,32,14,21,,,,,,,,1.9,1.1,1.6*36
$GPGBS,104407.25,12.228,10.643,4.792,,,,*43
$GPGSV,4,1,14,22,26,282,00,49,40,160,42,04,24,168,36,03,76,258,28*72
$GPGSV,4,2,14,17,41,310,00,08,18,153,34,19,15,316,00,32,09,035,29*77
$GPGSV,4,3,14,14,24,257,31,28,01,070,00,34,42,175,42,21,49,087,44*73
$GPGSV,4,4,14,02,65,069,45,36,32,136,41*76
$GPZDA,104407.50,31,07,2024,00,00*64
$GPGGA,104407.50,4110.6892,N,00835.6811,W,1,06,1.08,154.68,M,49.986,M,,*77
$GPRMC,104407.50,A,4110.6892,N,00835.6811,W,1.0733,324.583,310724,-2.1,W*4A
$GPGSA,A,3,4,8,32,14,21,,,,,,,,1.9,1.1,1.6*36
$GPGBS,104407.50,12.228,10.643,4.793,,,,*40
$GPGSV,4,1,14,22,26,282,00,49,40,160,42,04,24,168,36,03,76,258,28*72
$GPGSV,4,2,14,17,41,310,00,08,18,153,34,19,15,316,00,32,09,035,29*77
$GPGSV,4,3,14,14,24,257,31,28,01,070,00,34,42,175,42,21,49,087,44*73
$GPGSV,4,4,14,02,65,069,45,36,32,136,41*76
$GPZDA,104407.75,31,07,2024,00,00*63
$GPGGA,104407.75,4110.6891,N,00835.6811,W,1,06,1.08,154.91,M,49.986,M,,*75
$GPRMC,104407.75,A,4110.6891,N,00835.6811,W,1.1749,321.044,310724,-2.1,W*49
$GPGSA,A,3,4,8,32,14,21,,,,,,,,1.9,1.1,1.6*36
$GPGBS,104407.75,12.215,10.633,4.789,,,,*45
$GPGSV,4,1,14,22,26,282,00,49,40,160,42,04,24,168,36,03,76,258,28*72
$GPGSV,4,2,14,17,41,310,00,08,18,153,34,19,15,316,00,32,08,035,30*7E
$GPGSV,4,3,14,14,24,257,31,28,01,070,00,34,42,175,42,21,49,087,44*73
$GPGSV,4,4,14,02,65,069,45,36,32,136,41*76
$GPZDA,104408.00,31,07,2024,00,00*6E
$GPGGA,104408.00,4110.6890,N,00835.6811,W,1,06,1.08,155.11,M,49.986,M,,*70
$GPRMC,104408.00,A,4110.6890,N,00835.6811,W,1.2135,324.782,310724,-2.1,W*43
$GPGSA,A,3,4,8,32,14,21,,,,,,,,1.9,1.1,1.6*36
$GPGBS,104408.00,12.215,10.633,4.789,,,,*48
$GPGSV,4,1,14,22,26,282,00,49,40,160,42,04,24,168,36,03,76,258,28*72
$GPGSV,4,2,14,17,41,310,00,08,18,153,34,19,15,316,00,32,08,035,29*76
$GPGSV,4,3,14,14,24,257,31,28,01,070,00,34,42,175,42,21,49,087,44*73
$GPGSV,4,4,14,02,65,069,45,36,32,136,41*76
$GPZDA,104408.25,31,07,2024,00,00*69
$GPGGA,104408.25,4110.6889,N,00835.6810,W,1,06,1.08,155.48,M,49.986,M,,*72
$GPRMC,104408.25,A,4110.6889,N,00835.6810,W,1.0783,332.049,310724,-2.1,W*43
$GPGSA,A,3,4,8,32,14,21,,,,,,,,1.9,1.1,1.6*36
$GPGBS,104408.25,12.215,10.633,4.780,,,,*46
$GPGSV,4,1,14,22,26,282,00,49,40,160,42,04,24,168,36,03,76,258,29*73
$GPGSV,4,2,14,17,41,310,00,08,18,153,34,19,15,316,00,32,08,035,29*76
$GPGSV,4,3,14,14,24,257,32,28,01,070,00,34,42,175,42,21,49,087,44*70
$GPGSV,4,4,14,02,65,069,45,36,32,136,41*76
$GPZDA,104408.50,31,07,2024,00,00*6B
$GPGGA,104408.50,4110.6888,N,00835.6810,W,1,06,1.08,155.69,M,49.986,M,,*72
$GPRMC,104408.50,A,4110.6888,N,00835.6810,W,1.0348,331.991,310724,-2.1,W*4C
$GPGSA,A,3,4,8,32,14,21,,,,,,,,1.9,1.1,1.6*36
$GPGBS,104408.50,12.215,10.633,4.780,,,,*44
$GPGSV,4,1,14,22,26,282,00,49,40,160,42,04,24,168,36,03,76,258,29*73
$GPGSV,4,2,14,17,41,310,00,08,18,153,34,19,15,316,00,32,08,035,29*76
$GPGSV,4,3,14,14,24,257,31,28,01,070,00,34,42,175,43,21,49,087,44*72
$GPGSV,4,4,14,02,65,069,45,36,32,136,41*76
$GPZDA,104408.75,31,07,2024,00,00*6C
$GPGGA,104408.75,4110.6888,N,00835.6810,W,1,06,1.08,155.89,M,49.986,M,,*7B
$GPRMC,104408.75,A,4110.6888,N,00835.6810,W,0.9653,334.983,310724,-2.1,W*4A
$GPGSA,A,3,4,8,32,14,21,,,,,,,,1.9,1.1,1.6*36
$GPGBS,104408.75,12.215,10.633,4.781,,,,*42
$GPGSV,4,1,14,22,26,282,00,49,40,160,43,04,24,168,36,03,76,258,29*72
$GPGSV,4,2,14,17,41,310,00,08,18,153,34,19,15,316,00,32,08,035,29*76
$GPGSV,4,3,14,14,24,257,31,28,01,070,00,34,42,175,42,21,49,087,44*73
$GPGSV,4,4,14,02,65,069,45,36,32,136,41*76
$GPZDA,104409.00,31,07,2024,00,00*6F
$GPGGA,104409.00,4110.6887,N,00835.6810,W,1,06,1.08,156.09,M,49.986,M,,*7C
$GPRMC,104409.00,A,4110.6887,N,00835.6810,W,0.8784,335.136,310724,-2.1,W*4B
$GPGSA,A,3,4,8,32,14,21,,,,,,,,1.9,1.1,1.6*36
$GPGBS,104409.00,12.215,10.633,4.776,,,,*49
$GPGSV,4,1,14,22,26,282,00,49,40,160,42,04,24,168,36,03,76,258,29*73
$GPGSV,4,2,14,17,41,310,00,08,18,153,34,19,15,316,00,32,08,035,30*7E
$GPGSV,4,3,14,14,24,257,31,28,01,070,00,34,42,175,42,21,49,087,44*73
$GPGSV,4,4,14,02,65,069,45,36,32,136,41*76
$GPZDA,104409.25,31,07,2024,00,00*68
$GPGGA,104409.25,4110.6886,N,00835.6810,W,1,06,1.08,156.41,M,49.986,M,,*76
$GPRMC,104409.25,A,4110.6886,N,00835.6810,W,0.7746,342.474,310724,-2.1,W*4F
$GPGSA,A,3,4,8,32,14,21,,,,,,,,1.9,1.1,1.6*36
$GPGBS,104409.25,12.215,10.633,4.768,,,,*41
$GPGSV,4,1,14,22,26,282,00,49,40,160,42,04,24,168,36,03,76,258,28*72
$GPGSV,4,2,14,17,41,310,00,08,18,153,34,19,15,316,00,32,08,035,29*76
$GPGSV,4,3,14,14,24,257,32,28,01,070,00,34,42,175,43,21,49,087,44*71
$GPGSV,4,4,14,02,65,069,45,36,32,136,41*76
$GPZDA,104409.50,31,07,2024,00,00*6A
$GPGGA,104409.50,4110.6885,N,00835.6809,W,1,06,1.08,156.77,M,49.986,M,,*7A
$GPRMC,104409.50,A,4110.6885,N,00835.6809,W,0.6894,338.499,310724,-2.1,W*49
$GPGSA,A,3,4,8,32,14,21,,,,,,,,1.9,1.1,1.6*36
$GPGBS,104409.50,12.215,10.633,4.757,,,,*4F
$GPGSV,4,1,14,22,26,282,00,49,40,160,43,04,24,168,36,03,76,258,28*73
$GPGSV,4,2,14,17,41,310,00,08,18,153,34,19,15,316,00,32,08,035,30*7E
$GPGSV,4,3,14,14,24,257,32,28,01,070,00,34,42,175,43,21,49,087,44*71
$GPGSV,4,4,14,02,65,069,45,36,32,136,41*76
$GPZDA,104409.75,31,07,2024,00,00*6D
$GPGGA,104409.75,4110.6884,N,00835.6809,W,1,06,1.08,156.93,M,49.986,M,,*76
$GPRMC,104409.75,A,4110.6884,N,00835.6809,W,0.7046,335.556,310724,-2.1,W*46
$GPGSA,A,3,4,8,32,14,21,,,,,,,,1.9,1.1,1.6*36
$GPGBS,104409.75,12.215,10.633,4.754,,,,*4B
$GPGSV,4,1,14,22,26,282,00,49,40,160,42,04,24,168,36,03,76,258,28*72
$GPGSV,4,2,14,17,41,310,00,08,18,153,34,19,15,316,00,32,08,035,30*7E
$GPGSV,4,3,14,14,24,257,31,28,01,070,00,34,42,175,43,21,49,087,44*72
$GPGSV,4,4,14,02,65,069,45,36,32,136,41*76
$GPZDA,104410.00,31,07,2024,00,00*67
$GPGGA,104410.00,4110.6884,N,00835.6810,W,1,06,1.08,157.11,M,49.986,M,,*7F
$GPRMC,104410.00,A,4110.6884,N,00835.6810,W,0.6643,339.444,310724,-2.1,W*48
$GPGSA,A,3,4,8,32,14,21,,,,,,,,1.9,1.1,1.6*36
$GPGBS,104410.00,12.215,10.633,4.751,,,,*44
$GPGSV,4,1,14,22,26,282,00,49,40,160,42,04,24,168,36,03,76,258,29*73
$GPGSV,4,2,14,17,41,310,00,08,18,153,34,19,15,316,00,32,08,035,30*7E
$GPGSV,4,3,14,14,24,257,31,28,01,070,00,34,42,175,43,21,49,087,44*72
$GPGSV,4,4,14,02,65,069,45,36,32,136,41*76
$GPZDA,104410.25,31,07,2024,00,00*60
$GPGGA,104410.25,4110.6883,N,00835.6810,W,1,06,1.08,157.27,M,49.986,M,,*7A
$GPRMC,104410.25,A,4110.6883,N,00835.6810,W,0.6029,339.228,310724,-2.1,W*4E
$GPGSA,A,3,4,8,32,14,21,,,,,,,,1.9,1.1,1.6*36
$GPGBS,104410.25,12.215,10.633,4.753,,,,*41
$GPGSV,4,1,14,22,26,282,00,49,40,160,42,04,24,168,36,03,76,258,28*72
$GPGSV,4,2,14,17,41,310,00,08,18,153,34,19,15,316,25,32,08,035,29*71
$GPGSV,4,3,14,14,24,257,31,28,01,070,00,34,42,175,42,21,49,087,44*73
$GPGSV,4,4,14,02,65,069,45,36,32,136,41*76
$GPZDA,104410.50,31,07,2024,00,00*62
$GPGGA,104410.50,4110.6883,N,00835.6810,W,1,06,1.08,157.45,M,49.986,M,,*7C
$GPRMC,104410.50,A,4110.6883,N,00835.6810,W,0.6178,335.854,310724,-2.1,W*44
$GPGSA,A,3,4,8,32,14,21,,,,,,,,1.9,1.1,1.6*36
$GPGBS,104410.50,12.215,10.633,4.754,,,,*44
$GPGSV,4,1,14,22,26,282,00,49,40,160,42,04,24,168,36,03,76,258,28*72
$GPGSV,4,2,14,17,41,310,00,08,18,153,34,19,15,316,26,32,08,035,29*72
$GPGSV,4,3,14,14,24,257,31,28,01,070,00,34,42,175,43,21,49,087,44*72
$GPGSV,4,4,14,02,65,069,45,36,32,136,40*77
$GPZDA,104410.75,31,07,2024,00,00*65
$GPGGA,104410.75,4110.6882,N,00835.6809,W,1,06,1.08,157.78,M,49.986,M,,*7C
$GPRMC,104410.75,A,4110.6882,N,00835.6809,W,0.6347,332.650,310724,-2.1,W*49
$GPGSA,A,3,4,8,32,14,21,,,,,,,,1.9,1.1,1.6*36
$GPGBS,104410.75,12.215,10.633,4.748,,,,*4E
$GPGSV,4,1,14,22,26,282,00,49,40,160,43,04,24,168,36,03,76,258,28*73
$GPGSV,4,2,14,17,41,310,00,08,18,153,34,19,15,316,25,32,08,035,29*71
$GPGSV,4,3,14,14,24,257,32,28,01,070,00,34,42,175,42,21,49,087,44*70
$GPGSV,4,4,14,02,65,069,45,36,32,136,40*77
$GPZDA,104411.00,31,07,2024,00,00*66
$GPGGA,104411.00,4110.6881,N,00835.6809,W,1,06,1.08,158.06,M,49.986,M,,*7A
$GPRMC,104411.00,A,4110.6881,N,00835.6809,W,0.7137,330.642,310724,-2.1,W*4C
$GPGSA,A,3,4,8,32,14,21,,,,,,,,1.9,1.1,1.6*36
$GPGBS,104411.00,12.215,10.633,4.743,,,,*46
$GPGSV,4,1,14,22,26,282,00,49,40,160,43,04,24,168,36,03,76,258,28*73
$GPGSV,4,2,14,17,41,310,00,08,18,153,34,19,15,316,26,32,08,035,29*72
$GPGSV,4,3,14,14,24,257,32,28,01,070,00,34,42,175,43,21,49,087,44*71
$GPGSV,4,4,14,02,65,069,45,36,32,136,41*76
$GPZDA,104411.25,31,07,2024,00,00*61
$GPGGA,104411.25,4110.6881,N,00835.6809,W,1,06,1.08,158.20,M,49.986,M,,*79
$GPRMC,104411.25,A,4110.6881,N,00835.6809,W,0.8573,327.031,310724,-2.1,W*44
$GPGSA,A,3,4,8,32,14,21,,,,,,,,1.9,1.1,1.6*36
$GPGBS,104411.25,12.215,10.633,4.744,,,,*46
$GPGSV,4,1,14,22,26,282,00,49,40,160,42,04,24,168,36,03,76,258,28*72
$GPGSV,4,2,14,17,41,310,00,08,18,153,34,19,15,316,25,32,08,035,29*71
$GPGSV,4,3,14,14,24,257,31,28,01,070,00,34,42,175,42,21,49,087,44*73
$GPGSV,4,4,14,02,65,069,45,36,32,136,41*76
$GPZDA,104411.50,31,07,2024,00,00*63
$GPGGA,104411.50,4110.6880,N,00835.6809,W,1,06,1.08,158.36,M,49.986,M,,*7D
$GPRMC,104411.50,A,4110.6880,N,00835.6809,W,0.9068,329.036,310724,-2.1,W*40
$GPGSA,A,3,4,8,32,14,21,,,,,,,,1.9,1.1,1.6*36
$GPGBS,104411.50,12.215,10.633,4.749,,,,*49
$GPGSV,4,1,14,22,26,282,00,49,40,160,43,04,24,168,36,03,76,258,28*73
$GPGSV,4,2,14,17,41,310,00,08,18,153,34,19,15,316,25,32,08,035,28*70
$GPGSV,4,3,14,14,24,257,31,28,01,070,00,34,42,175,42,21,49,087,44*73
$GPGSV,4,4,14,02,65,069,45,36,32,136,41*76
$GPZDA,104411.75,31,07,2024,00,00*64
$GPGGA,104411.75,4110.6880,N,00835.6809,W,1,06,1.08,158.56,M,49.986,M,,*7C
$GPRMC,104411.75,A,4110.6880,N,00835.6809,W,0.8005,330.945,310724,-2.1,W*48
$GPGSA,A,3,4,8,32,14,21,,,,,,,,1.9,1.1,1.6*36
$GPGBS,104411.75,12.215,10.633,4.759,,,,*4F
$GPGSV,4,1,14,22,26,282,00,49,40,160,43,04,24,168,36,03,76,258,28*73
$GPGSV,4,2,14,17,41,310,00,08,18,153,34,19,15,316,25,32,08,035,29*71
$GPGSV,4,3,14,14,24,257,31,28,01,070,00,34,42,175,43,21,49,087,44*72
$GPGSV,4,4,14,02,65,069,45,36,32,136,41*76
$GPZDA,104412.00,31,07,2024,00,00*65
$GPGGA,104412.00,4110.6879,N,00835.6809,W,1,06,1.08,158.90,M,49.986,M,,*71
$GPRMC,104412.00,A,4110.6879,N,00835.6809,W,0.6435,334.983,310724,-2.1,W*48
$GPGSA,A,3,4,8,32,14,21,,,,,,,,1.9,1.1,1.6*36
$GPGBS,104412.00,12.215,10.633,4.755,,,,*42
$GPGSV,4,1,14,22,26,282,00,49,40,160,43,04,24,168,36,03,76,258,28*73
$GPGSV,4,2,14,17,41,310,00,08,18,153,34,19,15,316,25,32,08,035,29*71
$GPGSV,4,3,14,14,24,257,32,28,01,070,00,34,42,175,43,21,49,087,44*71
$GPGSV,4,4,14,02,65,069,45,36,32,136,41*76
$GPZDA,104412.25,31,07,2024,00,00*62
$GPGGA,104412.25,4110.6878,N,00835.6809,W,1,06,1.08,159.15,M,49.986,M,,*7B
$GPRMC,104412.25,A,4110.6878,N,00835.6809,W,0.4475,357.510,310724,-2.1,W*4B
$GPGSA,A,3,4,8,32,14,21,,,,,,,,1.9,1.1,1.6*36
$GPGBS,104412.25,12.215,10.633,4.760,,,,*43
$GPGSV,4,1,14,22,26,282,00,49,40,160,42,04,24,168,36,03,76,258,29*73
$GPGSV,4,2,14,17,41,310,00,08,18,153,33,19,15,316,25,32,08,035,28*77
$GPGSV,4,3,14,14,24,257,31,28,01,070,00,34,42,175,42,21,49,087,44*73
$GPGSV,4,4,14,02,65,069,45,36,32,136,41*76
$GPZDA,104412.50,31,07,2024,00,00*60
$GPGGA,104412.50,4110.6877,N,00835.6809,W,1,06,1.08,159.33,M,49.986,M,,*72
$GPRMC,104412.50,A,4110.6877,N,00835.6809,W,0.5348,340.907,310724,-2.1,W*42
$GPGSA,A,3,4,8,32,14,21,,,,,,,,1.9,1.1,1.6*36
$GPGBS,104412.50,12.215,10.633,4.766,,,,*47
$GPGSV,4,1,14,22,26,282,00,49,40,160,42,04,24,168,36,03,76,258,29*73
$GPGSV,4,2,14,17,41,310,00,08,18,153,33,19,15,316,25,32,08,035,28*77
$GPGSV,4,3,14,14,24,257,31,28,01,070,00,34,42,175,43,21,49,087,44*72
$GPGSV,4,4,14,02,65,069,45,36,32,136,40*77
$GPZDA,104412.75,31,07,2024,00,00*67
$GPGGA,104412.75,4110.6877,N,00835.6809,W,1,06,1.08,159.54,M,49.986,M,,*74
$GPRMC,104412.75,A,4110.6877,N,00835.6809,W,0.3936,339.775,310724,-2.1,W*45
$GPGSA,A,3,4,8,32,14,21,,,,,,,,1.9,1.1,1.6*36
$GPGBS,104412.75,12.215,10.633,4.772,,,,*45
$GPGSV,4,1,14,22,26,282,00,49,40,160,43,04,24,168,36,03,76,258,29*72
$GPGSV,4,2,14,17,41,310,00,08,18,153,33,19,15,316,25,32,08,035,28*77
$GPGSV,4,3,14,14,24,257,31,28,01,070,00,34,42,175,43,21,49,087,44*72
$GPGSV,4,4,14,02,65,069,45,36,32,136,41*76
$GPZDA,104413.00,31,07,2024,00,00*64
$GPGGA,104413.00,4110.6876,N,00835.6808,W,1,06,1.08,159.80,M,49.986,M,,*7E
$GPRMC,104413.00,A,4110.6876,N,00835.6808,W,0.3258,342.646,310724,-2.1,W*48
$GPGSA,A,3,4,8,32,14,21,,,,,,,,1.9,1.1,1.6*36
$GPGBS,104413.00,12.216,10.631,4.768,,,,*4C
$GPGSV,4,1,14,22,26,282,00,49,40,160,42,04,24,168,36,03,76,258,29*73
$GPGSV,4,2,14,17,41,310,00,08,18,153,33,19,15,316,25,32,08,035,29*76
$GPGSV,4,3,14,14,24,257,32,28,01,070,00,34,42,175,42,21,49,087,44*70
$GPGSV,4,4,14,02,64,069,45,36,32,136,40*76
$GPZDA,104413.25,31,07,2024,00,00*63
$GPGGA,104413.25,4110.6875,N,00835.6808,W,1,06,1.08,160.03,M,49.986,M,,*7B
$GPRMC,104413.25,A,4110.6875,N,00835.6808,W,0.2341,355.236,310724,-2.1,W*41
$GPGSA,A,3,4,8,32,14,21,,,,,,,,1.9,1.1,1.6*36
$GPGBS,104413.25,12.216,10.631,4.766,,,,*45
$GPGSV,4,1,14,22,26,282,00,49,40,160,42,04,24,168,36,03,76,258,29*73
$GPGSV,4,2,14,17,41,310,00,08,18,153,33,19,15,316,25,32,08,035,29*76
$GPGSV,4,3,14,14,24,257,32,28,01,070,00,34,42,175,42,21,49,087,44*70
$GPGSV,4,4,14,02,64,069,45,36,32,136,41*77
$GPZDA,104413.50,31,07,2024,00,00*61
$GPGGA,104413.50,4110.6874,N,00835.6808,W,1,06,1.08,160.29,M,49.986,M,,*70
$GPRMC,104413.50,A,4110.6874,N,00835.6808,W,0.1792,347.471,310724,-2.1,W*4D
$GPGSA,A,3,4,8,32,14,21,,,,,,,,1.9,1.1,1.6*36
$GPGBS,104413.50,12.224,10.661,4.764,,,,*41
$GPGSV,4,1,14,22,26,282,00,49,40,160,43,04,25,168,36,03,76,258,28*72
$GPGSV,4,2,14,17,41,310,00,08,18,153,33,19,15,316,24,32,08,035,29*77
$GPGSV,4,3,14,14,24,257,32,28,01,070,00,34,42,175,43,21,49,087,44*71
$GPGSV,4,4,14,02,64,069,45,36,32,136,41*77
$GPZDA,104413.75,31,07,2024,00,00*66
$GPGGA,104413.75,4110.6874,N,00835.6807,W,1,06,1.08,160.50,M,49.986,M,,*76
$GPRMC,104413.75,A,4110.6874,N,00835.6807,W,0.1567,7.125,310724,-2.1,W*4E
$GPGSA,A,3,4,8,32,14,21,,,,,,,,1.9,1.1,1.6*36
$GPGBS,104413.75,12.224,10.661,4.762,,,,*40
$GPGSV,4,1,14,22,26,282,00,49,40,160,42,04,25,168,36,03,76,258,29*72
$GPGSV,4,2,14,17,41,310,00,08,18,153,33,19,15,316,25,32,08,035,29*76
$GPGSV,4,3,14,14,24,257,32,28,01,070,00,34,42,175,43,21,49,087,44*71
$GPGSV,4,4,14,02,64,069,45,36,32,136,41*77
$GPZDA,104414.00,31,07,2024,00,00*63
$GPGGA,104414.00,4110.6873,N,00835.6807,W,1,06,1.08,160.70,M,49.986,M,,*76
$GPRMC,104414.00,A,4110.6873,N,00835.6807,W,0.0801,14.036,310724,-2.1,W*71
$GPGSA,A,3,4,8,32,14,21,,,,,,,,1.9,1.1,1.6*36
$GPGBS,104414.00,12.224,10.661,4.761,,,,*46
$GPGSV,4,1,14,22,26,282,00,49,40,160,42,04,25,168,36,03,76,258,29*72
$GPGSV,4,2,14,17,41,310,00,08,18,153,33,19,15,316,25,32,08,035,29*76
$GPGSV,4,3,14,14,24,257,32,28,01,070,00,34,42,175,43,21,49,087,44*71
$GPGSV,4,4,14,02,64,069,45,36,32,136,41*77
$GPZDA,104414.25,31,07,2024,00,00*64
$GPGGA,104414.25,4110.6872,N,00835.6807,W,1,06,1.08,160.91,M,49.986,M,,*7F
$GPRMC,104414.25,A,4110.6872,N,00835.6807,W,0.0701,33.690,310724,-2.1,W*77
$GPGSA,A,3,4,8,32,14,21,,,,,,,,1.9,1.1,1.6*36
$GPGBS,104414.25,12.224,10.661,4.758,,,,*4B
$GPGSV,4,1,14,22,26,282,00,49,40,160,42,04,25,168,36,03,76,258,29*72
$GPGSV,4,2,14,17,41,310,00,08,18,153,34,19,15,316,25,32,08,035,29*71
$GPGSV,4,3,14,14,24,257,32,28,01,070,00,34,42,175,42,21,49,087,44*70
$GPGSV,4,4,14,02,64,069,45,36,32,136,41*77
$GPZDA,104414.50,31,07,2024,00,00*66
$GPGGA,104414.50,4110.6872,N,00835.6806,W,1,06,1.08,161.09,M,49.986,M,,*7C
$GPRMC,104414.50,A,4110.6872,N,00835.6806,W,0.0550,45.000,310724,-2.1,W*7C
$GPGSA,A,3,4,8,32,14,21,,,,,,,,1.9,1.1,1.6*36
$GPGBS,104414.50,12.224,10.661,4.757,,,,*46
$GPGSV,4,1,14,22,26,282,00,49,40,160,43,04,25,168,36,03,76,258,29*73
$GPGSV,4,2,14,17,41,310,00,08,18,153,33,19,15,316,25,32,08,035,29*76
$GPGSV,4,3,14,14,24,257,32,28,01,070,00,34,42,175,43,21,49,087,44*71
$GPGSV,4,4,14,02,64,069,45,36,32,136,41*77
$GPZDA,104414.75,31,07,2024,00,00*61
$GPGGA,104414.75,4110.6871,N,00835.6806,W,1,06,1.08,161.28,M,49.986,M,,*7B
$GPRMC,104414.75,A,4110.6871,N,00835.6806,W,0.0615,108.435,310724,-2.1,W*40
$GPGSA,A,3,4,8,32,14,21,,,,,,,,1.9,1.1,1.6*36
$GPGBS,104414.75,12.224,10.661,4.756,,,,*40
$GPGSV,4,1,14,22,26,282,00,49,40,160,43,04,25,168,36,03,76,258,29*73
$GPGSV,4,2,14,17,41,310,00,08,18,153,33,19,15,316,25,32,08,035,29*76
$GPGSV,4,3,14,14,24,257,32,28,01,070,00,34,42,175,43,21,49,087,44*71
$GPGSV,4,4,14,02,64,069,45,36,32,136,41*77
$GPZDA,104415.00,31,07,2024,00,00*62
$GPGGA,104415.00,4110.6871,N,00835.6805,W,1,06,1.08,161.46,M,49.986,M,,*73
$GPRMC,104415.00,A,4110.6871,N,00835.6805,W,0.0869,153.435,310724,-2.1,W*4B
$GPGSA,A,3,4,8,32,14,21,,,,,,,,1.9,1.1,1.6*36
$GPGBS,104415.00,12.224,10.661,4.755,,,,*40
$GPGSV,4,1,14,22,26,282,00,49,40,160,43,04,25,168,36,03,76,258,29*73
$GPGSV,4,2,14,17,41,310,00,08,18,153,33,19,15,316,25,32,08,035,29*76
$GPGSV,4,3,14,14,24,257,32,28,01,070,00,34,42,175,42,21,49,087,44*70
$GPGSV,4,4,14,02,64,069,45,36,32,136,41*77
$GPZDA,104415.25,31,07,2024,00,00*65
$GPGGA,104415.25,4110.6870,N,00835.6805,W,1,06,1.08,161.61,M,49.986,M,,*70
$GPRMC,104415.25,A,4110.6870,N,00835.6805,W,0.0435,26.565,310724,-2.1,W*7F
$GPGSA,A,3,4,8,32,14,21,,,,,,,,1.9,1.1,1.6*36
$GPGBS,104415.25,12.224,10.661,4.755,,,,*47
$GPGSV,4,1,14,22,26,282,00,49,40,160,42,04,25,168,36,03,76,258,29*72
$GPGSV,4,2,14,17,41,310,00,08,18,153,33,19,15,316,26,32,08,035,29*75
$GPGSV,4,3,14,14,24,257,32,28,01,070,00,34,42,175,42,21,49,087,45*71
$GPGSV,4,4,14,02,64,069,45,36,32,136,41*77
$GPZDA,104415.50,31,07,2024,00,00*67
$GPGGA,104415.50,4110.6870,N,00835.6805,W,1,06,1.08,161.77,M,49.986,M,,*75
$GPRMC,104415.50,A,4110.6870,N,00835.6805,W,0.0550,135.000,310724,-2.1,W*4A
$GPGSA,A,3,4,8,32,14,21,,,,,,,,1.9,1.1,1.6*36
$GPGBS,104415.50,12.224,10.661,4.754,,,,*44
$GPGSV,4,1,14,22,26,282,00,49,40,160,42,04,25,168,36,03,76,258,29*72
$GPGSV,4,2,14,17,41,310,00,08,18,153,33,19,15,316,25,32,08,035,29*76
$GPGSV,4,3,14,14,24,257,32,28,01,070,00,34,42,175,42,21,49,087,44*70
$GPGSV,4,4,14,02,64,069,45,36,32,136,41*77
$GPZDA,104415.75,31,07,2024,00,00*60
$GPGGA,104415.75,4110.6869,N,00835.6805,W,1,06,1.08,161.98,M,49.986,M,,*7B
$GPRMC,104415.75,A,4110.6869,N,00835.6805,W,0.0194,180.000,310724,-2.1,W*47
$GPGSA,A,3,4,8,32,14,21,,,,,,,,1.9,1.1,1.6*36
$GPGBS,104415.75,12.224,10.661,4.757,,,,*40
$GPGSV,4,1,14,22,26,282,00,49,40,160,43,04,25,168,37,03,76,258,29*72
$GPGSV,4,2,14,17,41,310,00,08,18,153,33,19,15,316,25,32,08,035,28*77
$GPGSV,4,3,14,14,24,257,32,28,01,070,00,34,42,175,43,21,49,087,44*71
$GPGSV,4,4,14,02,64,069,45,36,32,136,41*77
$GPZDA,104416.00,31,07,2024,00,00*61
$GPGGA,104416.00,4110.6868,N,00835.6804,W,1,06,1.08,162.10,M,49.986,M,,*79
$GPRMC,104416.00,A,4110.6868,N,00835.6804,W,0.0000,0.000,310724,-2.1,W*43
$GPGSA,A,3,4,8,32,14,21,,,,,,,,1.9,1.1,1.6*36
$GPGBS,104416.00,12.213,10.662,4.756,,,,*47
$GPGSV,4,1,14,22,26,282,00,49,40,160,43,04,25,168,37,03,76,258,29*72
$GPGSV,4,2,14,17,41,310,00,08,18,153,33,19,15,316,25,32,08,035,29*76
$GPGSV,4,3,14,14,23,257,32,28,01,070,00,34,42,175,42,21,49,087,44*77
$GPGSV,4,4,14,02,64,069,45,36,32,136,41*77
$GPZDA,104416.25,31,07,2024,00,00*66
$GPGGA,104416.25,4110.6868,N,00835.6804,W,1,06,1.08,162.26,M,49.986,M,,*7B
$GPRMC,104416.25,A,4110.6868,N,00835.6804,W,0.0435,206.565,310724,-2.1,W*44
$GPGSA,A,3,4,8,32,14,21,,,,,,,,1.9,1.1,1.6*36
$GPGBS,104416.25,12.213,10.662,4.756,,,,*40
$GPGSV,4,1,14,22,26,282,00,49,40,160,42,04,25,168,37,03,76,258,29*73
$GPGSV,4,2,14,17,41,310,00,08,18,153,33,19,15,316,26,32,08,035,29*75
$GPGSV,4,3,14,14,23,257,32,28,01,070,00,34,42,175,43,21,49,087,44*76
$GPGSV,4,4,14,02,64,069,45,36,32,136,41*77
$GPZDA,104416.50,31,07,2024,00,00*64
$GPGGA,104416.50,4110.6867,N,00835.6804,W,1,06,1.08,162.42,M,49.986,M,,*74
$GPRMC,104416.50,A,4110.6867,N,00835.6804,W,0.0778,270.000,310724,-2.1,W*44
$GPGSA,A,3,4,8,32,14,21,,,,,,,,1.9,1.1,1.6*36
$GPGBS,104416.50,12.213,10.662,4.757,,,,*43
$GPGSV,4,1,14,22,26,282,00,49,40,160,42,04,25,168,37,03,76,258,29*73
$GPGSV,4,2,14,17,41,310,00,08,18,153,33,19,15,316,25,32,08,035,29*76
$GPGSV,4,3,14,14,23,257,32,28,01,070,00,34,42,175,43,21,49,087,44*76
$GPGSV,4,4,14,02,64,069,45,36,32,136,41*77
$GPZDA,104416.75,31,07,2024,00,00*63
$GPGGA,104416.75,4110.6867,N,00835.6803,W,1,06,1.08,162.52,M,49.986,M,,*75
$GPRMC,104416.75,A,4110.6867,N,00835.6803,W,0.0435,296.565,310724,-2.1,W*40
$GPGSA,A,3,4,8,32,14,21,,,,,,,,1.9,1.1,1.6*36
$GPGBS,104416.75,12.213,10.662,4.759,,,,*4A
$GPGSV,4,1,14,22,26,282,00,49,40,160,43,04,25,168,36,03,76,258,29*73
$GPGSV,4,2,14,17,41,310,00,08,18,153,33,19,15,316,25,32,08,035,29*76
$GPGSV,4,3,14,14,23,257,32,28,01,070,00,34,42,175,43,21,49,087,44*76
$GPGSV,4,4,14,02,64,069,45,36,32,136,41*77
$GPZDA,104417.00,31,07,2024,00,00*60
$GPGGA,104417.00,4110.6867,N,00835.6803,W,1,06,1.08,162.59,M,49.986,M,,*7D
$GPRMC,104417.00,A,4110.6867,N,00835.6803,W,0.0972,306.870,310724,-2.1,W*4C
$GPGSA,A,3,4,8,32,14,21,,,,,,,,1.9,1.1,1.6*36
$GPGBS,104417.00,12.213,10.662,4.760,,,,*43
$GPGSV,4,1,14,22,26,282,00,49,40,160,42,04,25,168,37,03,76,258,29*73
$GPGSV,4,2,14,17,41,310,00,08,18,153,33,19,15,316,26,32,08,035,29*75
$GPGSV,4,3,14,14,23,257,32,28,01,070,00,34,42,175,43,21,49,087,44*76
$GPGSV,4,4,14,02,64,069,45,36,32,136,41*77
$GPZDA,104417.25,31,07,2024,00,00*67
$GPGGA,104417.25,4110.6867,N,00835.6803,W,1,06,1.08,162.68,M,49.986,M,,*78
$GPRMC,104417.25,A,4110.6867,N,00835.6803,W,0.1100,315.000,310724,-2.1,W*4A
$GPGSA,A,3,4,8,32,14,21,,,,,,,,1.9,1.1,1.6*36
$GPGBS,104417.25,12.213,10.662,4.762,,,,*46
$GPGSV,4,1,14,22,26,282,00,49,40,160,42,04,25,168,37,03,76,258,30*7B
$GPGSV,4,2,14,17,41,310,00,08,18,153,33,19,15,316,25,32,08,035,29*76
$GPGSV,4,3,14,14,23,257,32,28,01,070,00,34,42,175,43,21,49,087,45*77
$GPGSV,4,4,14,02,64,069,45,36,32,136,41*77
$GPZDA,104417.50,31,07,2024,00,00*65
$GPGGA,104417.50,4110.6866,N,00835.6802,W,1,06,1.08,162.79,M,49.986,M,,*7A
$GPRMC,104417.50,A,4110.6866,N,00835.6802,W,0.0825,315.000,310724,-2.1,W*47
$GPGSA,A,3,4,8,32,14,21,,,,,,,,1.9,1.1,1.6*36
$GPGBS,104417.50,12.213,10.662,4.763,,,,*45
$GPGSV,4,1,14,22,26,282,00,49,40,160,42,04,25,168,37,03,76,258,29*73
$GPGSV,4,2,14,17,41,310,00,08,18,153,33,19,15,316,25,32,08,035,29*76
$GPGSV,4,3,14,14,23,257,32,28,01,070,00,34,42,175,43,21,49,087,44*76
$GPGSV,4,4,14,02,64,069,45,36,32,136,41*77
$GPZDA,104417.75,31,07,2024,00,00*62
$GPGGA,104417.75,4110.6866,N,00835.6802,W,1,06,1.08,162.91,M,49.986,M,,*7B
$GPRMC,104417.75,A,4110.6866,N,00835.6802,W,0.0825,315.000,310724,-2.1,W*40
$GPGSA,A,3,4,8,32,14,21,,,,,,,,1.9,1.1,1.6*36
$GPGBS,104417.75,12.206,10.667,4.764,,,,*44
$GPGSV,4,1,14,22,26,282,00,49,40,160,42,04,25,168,37,03,76,258,29*73
$GPGSV,4,2,14,17,41,310,00,08,18,153,33,19,15,316,26,32,08,035,29*75
$GPGSV,4,3,14,14,23,257,32,28,01,070,00,34,42,175,43,21,49,088,44*79
$GPGSV,4,4,14,02,64,069,45,36,32,136,41*77
$GPZDA,104418.00,31,07,2024,00,00*6F
$GPGGA,104418.00,4110.6865,N,00835.6802,W,1,06,1.08,162.98,M,49.986,M,,*7C
$GPRMC,104418.00,A,4110.6865,N,00835.6802,W,0.1245,308.660,310724,-2.1,W*4F
$GPGSA,A,3,4,8,32,14,21,,,,,,,,1.9,1.1,1.6*36
$GPGBS,104418.00,12.206,10.667,4.765,,,,*48
$GPGSV,4,1,14,22,25,282,00,49,40,160,42,04,25,168,37,03,76,258,29*70
$GPGSV,4,2,14,17,41,310,00,08,18,153,33,19,15,316,25,32,08,035,29*76
$GPGSV,4,3,14,14,23,257,32,28,01,070,00,34,42,175,43,21,49,088,44*79
$GPGSV,4,4,14,02,64,069,45,36,32,136,41*77
$GPZDA,104418.25,31,07,2024,00,00*68
$GPGGA,104418.25,4110.6865,N,00835.6802,W,1,06,1.08,163.08,M,49.986,M,,*73
$GPRMC,104418.25,A,4110.6865,N,00835.6802,W,0.0275,315.000,310724,-2.1,W*46
$GPGSA,A,3,4,8,32,14,21,,,,,,,,1.9,1.1,1.6*36
$GPGBS,104418.25,12.206,10.667,4.767,,,,*4D
$GPGSV,4,1,14,22,25,282,00,49,40,160,42,04,25,168,37,03,76,258,29*70
$GPGSV,4,2,14,17,41,310,00,08,18,153,33,19,15,316,25,32,08,035,29*76
$GPGSV,4,3,14,14,23,257,32,28,01,070,00,34,42,175,42,21,49,088,44*78
$GPGSV,4,4,14,02,64,069,45,36,32,136,41*77
$GPZDA,104418.50,31,07,2024,00,00*6A
$GPGGA,104418.50,4110.6865,N,00835.6802,W,1,06,1.08,163.06,M,49.986,M,,*7F
$GPRMC,104418.50,A,4110.6865,N,00835.6802,W,0.0869,333.435,310724,-2.1,W*45
$GPGSA,A,3,4,8,32,14,21,,,,,,,,1.9,1.1,1.6*36
$GPGBS,104418.50,12.206,10.667,4.770,,,,*49
$GPGSV,4,1,14,22,25,282,00,49,40,160,43,04,25,168,37,03,76,258,29*71
$GPGSV,4,2,14,17,41,310,00,08,18,153,33,19,15,316,25,32,08,035,29*76
$GPGSV,4,3,14,14,23,257,31,28,01,070,00,34,42,175,43,21,49,088,44*7A
$GPGSV,4,4,14,02,64,069,45,36,32,136,41*77
$GPZDA,104418.75,31,07,2024,00,00*6D
$GPGGA,104418.75,4110.6865,N,00835.6802,W,1,06,1.08,163.03,M,49.986,M,,*7D
$GPRMC,104418.75,A,4110.6865,N,00835.6802,W,0.1229,341.565,310724,-2.1,W*4C
$GPGSA,A,3,4,8,32,14,21,,,,,,,,1.9,1.1,1.6*36
$GPGBS,104418.75,12.206,10.667,4.772,,,,*4C
$GPGSV,4,1,14,22,25,282,00,49,40,160,43,04,25,168,37,03,76,258,29*71
$GPGSV,4,2,14,17,41,310,00,08,18,153,32,19,15,316,25,32,08,035,29*77
$GPGSV,4,3,14,14,23,257,32,28,01,070,00,34,42,175,42,21,49,088,44*78
$GPGSV,4,4,14,02,64,069,45,36,32,136,41*77
$GPZDA,104419.00,31,07,2024,00,00*6E
$GPGGA,104419.00,4110.6865,N,00835.6801,W,1,06,1.08,163.02,M,49.986,M,,*7C
$GPRMC,104419.00,A,4110.6865,N,00835.6801,W,0.1834,327.995,310724,-2.1,W*49
$GPGSA,A,3,4,8,32,14,21,,,,,,,,1.9,1.1,1.6*36
$GPGBS,104419.00,12.206,10.667,4.774,,,,*49
$GPGSV,4,1,14,22,25,282,00,49,40,160,42,04,25,168,36,03,76,258,29*71
$GPGSV,4,2,14,17,41,310,00,08,18,153,32,19,15,316,25,32,08,035,29*77
$GPGSV,4,3,14,14,23,257,32,28,01,070,00,34,42,175,43,21,49,088,44*79
$GPGSV,4,4,14,02,64,069,45,36,32,136,41*77
$GPZDA,104419.25,31,07,2024,00,00*69
$GPGGA,104419.25,4110.6865,N,00835.6801,W,1,06,1.08,162.86,M,49.986,M,,*76
$GPRMC,104419.25,A,4110.6865,N,00835.6801,W,0.2436,331.390,310724,-2.1,W*4B
$GPGSA,A,3,4,8,32,14,21,,,,,,,,1.9,1.1,1.6*36
$GPGBS,104419.25,12.206,10.667,4.772,,,,*48
$GPGSV,4,1,14,22,25,282,00,49,40,160,42,04,25,168,37,03,76,258,29*70
$GPGSV,4,2,14,17,41,310,00,08,18,153,32,19,15,316,25,32,08,035,30*7F
$GPGSV,4,3,14,14,23,257,32,28,01,070,00,34,42,175,42,21,49,088,44*78
$GPGSV,4,4,14,02,64,069,45,36,32,136,41*77
$GPZDA,104419.50,31,07,2024,00,00*6B
$GPGGA,104419.50,4110.6865,N,00835.6800,W,1,06,1.08,162.83,M,49.986,M,,*70
$GPRMC,104419.50,A,4110.6865,N,00835.6800,W,0.3668,327.995,310724,-2.1,W*48
$GPGSA,A,3,4,8,32,14,21,,,,,,,,1.9,1.1,1.6*36
$GPGBS,104419.50,12.206,10.667,4.774,,,,*4C
$GPGSV,4,1,14,22,25,282,00,49,40,160,42,04,25,168,37,03,76,258,29*70
$GPGSV,4,2,14,17,41,310,00,08,18,153,32,19,15,316,24,32,08,035,29*76
$GPGSV,4,3,14,14,23,257,32,28,01,070,00,34,42,175,42,21,49,088,44*78
$GPGSV,4,4,14,02,64,069,45,36,32,136,41*77
$GPZDA,104419.75,31,07,2024,00,00*6C
$GPGGA,104419.75,4110.6865,N,00835.6800,W,1,06,1.08,162.72,M,49.986,M,,*79
$GPRMC,104419.75,A,4110.6865,N,00835.6800,W,0.3829,336.038,310724,-2.1,W*4A
$GPGSA,A,3,4,8,32,14,21,,,,,,,,1.9,1.1,1.6*36
$GPGBS,104419.75,12.206,10.667,4.770,,,,*4F
$GPGSV,4,1,14,22,25,282,00,49,40,160,42,04,25,168,37,03,76,258,29*70
$GPGSV,4,2,14,17,41,310,00,08,18,153,33,19,15,316,25,32,08,035,30*7E
$GPGSV,4,3,14,14,23,257,32,28,01,070,00,34,42,175,42,21,49,088,44*78
$GPGSV,4,4,14,02,64,069,45,36,32,136,41*77
$GPZDA,104420.00,31,07,2024,00,00*64
$GPGGA,104420.00,4110.6865,N,00835.6800,W,1,06,1.08,162.66,M,49.986,M,,*74
$GPRMC,104420.00,A,4110.6865,N,00835.6800,W,0.4263,335.772,310724,-2.1,W*4B
$GPGSA,A,3,4,8,32,14,21,,,,,,,,1.9,1.1,1.6*36
$GPGBS,104420.00,12.206,10.667,4.772,,,,*45
$GPGSV,4,1,14,22,25,282,00,49,40,160,42,04,25,168,37,03,76,258,28*71
$GPGSV,4,2,14,17,41,310,00,08,18,153,32,19,15,316,24,32,08,035,29*76
$GPGSV,4,3,14,14,23,257,32,28,01,070,00,34,42,175,42,21,49,088,44*78
$GPGSV,4,4,14,02,64,069,45,36,32,136,41*77
$GPZDA,104420.25,31,07,2024,00,00*63
$GPGGA,104420.25,4110.6865,N,00835.6799,W,1,06,1.08,162.69,M,49.986,M,,*73
$GPRMC,104420.25,A,4110.6865,N,00835.6799,W,0.4119,340.710,310724,-2.1,W*4B
$GPGSA,A,3,4,8,32,14,21,,,,,,,,1.9,1.1,1.6*36
$GPGBS,104420.25,12.206,10.667,4.777,,,,*47
$GPGSV,4,1,14,22,25,282,00,49,40,160,42,04,25,168,37,03,76,258,29*70
$GPGSV,4,2,14,17,41,310,00,08,18,153,32,19,15,316,24,32,08,035,28*77
$GPGSV,4,3,14,14,23,257,32,28,01,070,00,34,42,175,42,21,49,088,44*78
$GPGSV,4,4,14,02,64,069,45,36,32,136,41*77
$GPZDA,104420.50,31,07,2024,00,00*61
$GPGGA,104420.50,4110.6865,N,00835.6799,W,1,06,1.08,162.60,M,49.986,M,,*78
$GPRMC,104420.50,A,4110.6865,N,00835.6799,W,0.4187,338.199,310724,-2.1,W*46
$GPGSA,A,3,4,8,32,14,21,,,,,,,,1.9,1.1,1.6*36
$GPGBS,104420.50,12.206,10.667,4.779,,,,*4B
$GPGSV,4,1,14,22,25,282,00,49,40,160,42,04,25,168,37,03,76,258,29*70
$GPGSV,4,2,14,17,41,310,00,08,18,153,33,19,15,316,24,32,08,035,29*77
$GPGSV,4,3,14,14,23,257,31,28,01,070,00,34,42,175,43,21,49,088,44*7A
$GPGSV,4,4,14,02,64,069,45,36,32,136,41*77
$GPZDA,104420.75,31,07,2024,00,00*66
$GPGGA,104420.75,4110.6865,N,00835.6799,W,1,06,1.08,162.59,M,49.986,M,,*75
$GPRMC,104420.75,A,4110.6865,N,00835.6799,W,0.4007,345.964,310724,-2.1,W*48
$GPGSA,A,3,4,8,32,14,21,,,,,,,,1.9,1.1,1.6*36
$GPGBS,104420.75,12.206,10.667,4.779,,,,*4C
$GPGSV,4,1,14,22,25,282,00,49,40,160,42,04,25,168,37,03,76,258,29*70
$GPGSV,4,2,14,17,41,310,00,08,18,153,33,19,15,316,24,32,08,035,29*77
$GPGSV,4,3,14,14,23,257,32,28,01,070,00,34,42,175,43,21,49,088,44*79
$GPGSV,4,4,14,02,64,069,45,36,32,136,41*77
$GPZDA,104421.00,31,07,2024,00,00*65
$GPGGA,104421.00,4110.6865,N,00835.6799,W,1,06,1.08,162.61,M,49.986,M,,*7D
$GPRMC,104421.00,A,4110.6865,N,00835.6799,W,0.3134,352.875,310724,-2.1,W*4A
$GPGSA,A,3,4,8,32,14,21,,,,,,,,1.9,1.1,1.6*36
$GPGBS,104421.00,12.206,10.667,4.779,,,,*4F
$GPGSV,4,1,14,22,25,282,00,49,40,160,42,04,25,168,37,03,76,258,29*70
$GPGSV,4,2,14,17,41,310,00,08,18,153,33,19,15,316,25,32,08,035,29*76
$GPGSV,4,3,14,14,23,257,32,28,01,070,00,34,42,175,42,21,49,088,44*78
$GPGSV,4,4,14,02,64,069,45,36,32,136,41*77
$GPZDA,104421.25,31,07,2024,00,00*62
$GPGGA,104421.25,4110.6865,N,00835.6798,W,1,06,1.08,162.56,M,49.986,M,,*7F
$GPRMC,104421.25,A,4110.6865,N,00835.6798,W,0.3395,346.759,310724,-2.1,W*41
$GPGSA,A,3,4,8,32,14,21,,,,,,,,1.9,1.1,1.6*36
$GPGBS,104421.25,12.206,10.667,4.778,,,,*49
$GPGSV,4,1,14,22,25,282,00,49,40,160,42,04,25,168,37,03,76,258,29*70
$GPGSV,4,2,14,17,41,310,00,08,18,153,33,19,15,316,25,32,08,035,29*76
$GPGSV,4,3,14,14,23,257,32,28,01,070,00,34,42,175,42,21,49,088,44*78
$GPGSV,4,4,14,02,64,069,45,36,32,136,40*76
$GPZDA,104421.50,31,07,2024,00,00*60
$GPGGA,104421.50,4110.6865,N,00835.6798,W,1,06,1.08,162.51,M,49.986,M,,*7A
$GPRMC,104421.50,A,4110.6865,N,00835.6798,W,0.3018,345.069,310724,-2.1,W*42
$GPGSA,A,3,4,8,32,14,21,,,,,,,,1.9,1.1,1.6*36
$GPGBS,104421.50,12.206,10.667,4.782,,,,*4E
$GPGSV,4,1,14,22,25,282,00,49,40,160,42,04,25,168,37,03,76,258,29*70
$GPGSV,4,2,14,17,41,310,00,08,18,153,33,19,15,316,25,32,08,035,29*76
$GPGSV,4,3,14,14,23,257,32,28,01,070,00,34,42,175,43,21,49,088,44*79
$GPGSV,4,4,14,02,64,069,45,36,32,136,41*77
$GPZDA,104421.75,31,07,2024,00,00*67
$GPGGA,104421.75,4110.6865,N,00835.6798,W,1,06,1.08,162.37,M,49.986,M,,*7D
$GPRMC,104421.75,A,4110.6865,N,00835.6798,W,0.2890,340.346,310724,-2.1,W*47
$GPGSA,A,3,4,8,32,14,21,,,,,,,,1.9,1.1,1.6*36
$GPGBS,104421.75,12.206,10.667,4.787,,,,*4C
$GPGSV,4,1,14,22,25,282,00,49,40,160,42,04,25,168,36,03,76,258,29*71
$GPGSV,4,2,14,17,41,310,00,08,18,153,33,19,15,316,25,32,08,035,29*76
$GPGSV,4,3,14,14,23,257,31,28,01,070,00,34,42,175,43,21,49,088,44*7A
$GPGSV,4,4,14,02,64,069,45,36,32,136,41*77
$GPZDA,104422.00,31,07,2024,00,00*66
$GPGGA,104422.00,4110.6865,N,00835.6798,W,1,06,1.08,162.25,M,49.986,M,,*7F
$GPRMC,104422.00,A,4110.6865,N,00835.6798,W,0.2870,331.699,310724,-2.1,W*49
$GPGSA,A,3,4,8,32,14,21,,,,,,,,1.9,1.1,1.6*36
$GPGBS,104422.00,12.206,10.667,4.792,,,,*49
$GPGSV,4,1,14,22,25,282,00,49,40,160,42,04,25,168,37,03,76,258,28*71
$GPGSV,4,2,14,17,41,310,00,08,18,153,33,19,15,316,25,32,08,035,29*76
$GPGSV,4,3,14,14,23,257,31,28,01,070,00,34,42,175,43,21,49,088,44*7A
$GPGSV,4,4,14,02,64,069,45,36,32,136,40*76
$GPZDA,104422.25,31,07,2024,00,00*61
$GPGGA,104422.25,4110.6866,N,00835.6798,W,1,06,1.08,161.95,M,49.986,M,,*73
$GPRMC,104422.25,A,4110.6866,N,00835.6798,W,0.3568,330.642,310724,-2.1,W*4F
$GPGSA,A,3,4,8,32,14,21,,,,,,,,1.9,1.1,1.6*36
$GPGBS,104422.25,12.206,10.667,4.793,,,,*4F
$GPGSV,4,1,14,22,25,282,00,49,40,160,42,04,25,168,37,03,76,258,28*71
$GPGSV,4,2,14,17,41,310,00,08,18,153,33,19,15,316,25,32,08,035,30*7E
$GPGSV,4,3,14,14,23,257,31,28,01,070,00,34,42,175,42,21,49,088,44*7B
$GPGSV,4,4,14,02,64,069,45,36,32,136,40*76
$GPZDA,104422.50,31,07,2024,00,00*63
$GPGGA,104422.50,4110.6866,N,00835.6798,W,1,06,1.08,161.85,M,49.986,M,,*70
$GPRMC,104422.50,A,4110.6866,N,00835.6798,W,0.3668,327.995,310724,-2.1,W*4D
$GPGSA,A,3,4,8,32,14,21,,,,,,,,1.9,1.1,1.6*36
$GPGBS,104422.50,12.206,10.667,4.798,,,,*46
$GPGSV,4,1,14,22,25,282,00,49,40,160,42,04,25,168,37,03,76,258,28*71
$GPGSV,4,2,14,17,41,310,00,08,18,153,33,19,15,316,25,32,08,035,29*76
$GPGSV,4,3,14,14,23,257,32,28,01,070,00,34,42,175,43,21,49,088,44*79
$GPGSV,4,4,14,02,64,069,45,36,32,136,41*77
$GPZDA,104422.75,31,07,2024,00,00*64
$GPGGA,104422.75,4110.6866,N,00835.6798,W,1,06,1.08,161.77,M,49.986,M,,*7A
$GPRMC,104422.75,A,4110.6866,N,00835.6798,W,0.4475,325.620,310724,-2.1,W*40
$GPGSA,A,3,4,8,32,14,21,,,,,,,,1.9,1.1,1.6*36
$GPGBS,104422.75,12.206,10.667,4.807,,,,*48
$GPGSV,4,1,14,22,25,282,00,49,40,160,43,04,25,168,37,03,76,258,28*70
$GPGSV,4,2,14,17,41,310,00,08,18,153,33,19,15,316,25,32,08,035,28*77
$GPGSV,4,3,14,14,23,257,31,28,01,070,00,34,42,175,42,21,49,088,44*7B
$GPGSV,4,4,14,02,64,069,45,36,32,136,41*77
$GPZDA,104423.00,31,07,2024,00,00*67
$GPGGA,104423.00,4110.6866,N,00835.6798,W,1,06,1.08,161.75,M,49.986,M,,*7B
$GPRMC,104423.00,A,4110.6866,N,00835.6798,W,0.4637,326.976,310724,-2.1,W*48
$GPGSA,A,3,4,8,32,14,21,,,,,,,,1.9,1.1,1.6*36
$GPGBS,104423.00,12.206,10.667,4.814,,,,*49
$GPGSV,4,1,14,22,25,282,00,49,40,160,42,04,25,168,37,03,76,258,28*71
$GPGSV,4,2,14,17,41,310,00,08,18,153,32,19,15,316,25,32,08,035,28*76
$GPGSV,4,3,14,14,23,257,32,28,01,070,00,34,42,175,42,21,49,088,44*78
$GPGSV,4,4,14,02,64,069,45,36,32,136,41*77
$GPZDA,104423.25,31,07,2024,00,00*60
$GPGGA,104423.25,4110.6866,N,00835.6797,W,1,06,1.08,161.69,M,49.986,M,,*7E
$GPRMC,104423.25,A,4110.6866,N,00835.6797,W,0.4187,338.199,310724,-2.1,W*4A
$GPGSA,A,3,4,8,32,14,21,,,,,,,,1.9,1.1,1.6*36
$GPGBS,104423.25,12.206,10.667,4.820,,,,*49
$GPGSV,4,1,14,22,25,282,00,49,40,160,42,04,25,168,36,03,76,258,28*70
$GPGSV,4,2,14,17,41,310,00,08,18,153,32,19,15,316,25,32,08,035,28*76
$GPGSV,4,3,14,14,23,257,32,28,01,070,00,34,42,175,42,21,49,088,44*78
$GPGSV,4,4,14,02,64,069,45,36,32,136,41*77
$GPZDA,104423.50,31,07,2024,00,00*62
$GPGGA,104423.50,4110.6866,N,00835.6796,W,1,06,1.08,161.51,M,49.986,M,,*76
$GPRMC,104423.50,A,4110.6866,N,00835.6796,W,0.4007,337.166,310724,-2.1,W*4F
$GPGSA,A,3,4,8,32,14,21,,,,,,,,1.9,1.1,1.6*36
$GPGBS,104423.50,12.206,10.667,4.823,,,,*48
$GPGSV,4,1,14,22,25,282,00,49,40,160,42,04,25,168,37,03,76,258,28*71
$GPGSV,4,2,14,17,41,310,00,08,18,153,32,19,15,316,25,32,08,035,29*77
$GPGSV,4,3,14,14,23,257,32,28,01,070,00,34,42,175,42,21,49,088,44*78
$GPGSV,4,4,14,02,64,069,45,36,32,136,41*77
$GPZDA,104423.75,31,07,2024,00,00*65
$GPGGA,104423.75,4110.6866,N,00835.6796,W,1,06,1.08,161.43,M,49.986,M,,*72
$GPRMC,104423.75,A,4110.6866,N,00835.6796,W,0.3754,338.749,310724,-2.1,W*4A
$GPGSA,A,3,4,8,32,14,21,,,,,,,,1.9,1.1,1.6*36
$GPGBS,104423.75,12.206,10.667,4.830,,,,*4D
$GPGSV,4,1,14,22,25,282,00,49,40,160,42,04,25,168,37,03,76,258,28*71
